City_ID,City,Lat,Lng,Max Temp,Humidity,Cloudiness,Wind Speed,Country,Date
0,polyarnyy,69.1989,33.4478,-0.93,72,0,9.58,RU,1682409403
1,linyi,35.0631,118.3428,15.76,59,90,5.24,CN,1682409129
2,floral city,28.75,-82.2968,20.01,97,78,2.55,US,1682409404
3,west island,-12.1568,96.8225,28.99,74,75,8.75,CC,1682409404
4,santa luzia,-19.7697,-43.8514,18.5,77,0,2.06,BR,1682409404
5,adamstown,-25.066,-130.1015,24.97,88,96,5.17,PN,1682409121
6,maragogi,-9.0122,-35.2225,23.71,89,37,2.02,BR,1682409405
7,kodiak,57.79,-152.4072,1.43,77,100,2.93,US,1682409405
8,waitangi,-43.9535,-176.5597,13.79,79,91,5.36,NZ,1682409405
9,wanlaweyn,2.6185,44.8938,30.96,54,58,3.94,SO,1682409405
10,massenya,11.4039,16.1705,34.96,30,68,3.33,TD,1682409406
11,lebu,-37.6167,-73.65,9.67,89,87,1.8,CL,1682409406
12,port saint john's,-31.6229,29.5448,23.49,78,93,2.32,ZA,1682409406
13,bredasdorp,-34.5322,20.0403,17.56,66,90,0.92,ZA,1682409130
14,yellowknife,62.456,-114.3525,2.29,69,20,5.14,CA,1682409319
15,touros,-5.1989,-35.4608,23.82,94,26,4.19,BR,1682409124
16,mburucuya,-28.0454,-58.2245,14.83,98,31,2.26,AR,1682409407
17,bethel,41.3712,-73.414,7.19,80,75,1.54,US,1682409127
18,papatowai,-46.5619,169.4708,12.01,93,100,7.49,NZ,1682409407
19,jamestown,42.097,-79.2353,2.77,92,100,1.54,US,1682409162
20,grytviken,-54.2811,-36.5092,2.5,92,63,3.92,GS,1682409407
21,ust-nera,64.5667,143.2,-1.02,87,88,2.27,RU,1682409206
22,talnakh,69.4865,88.3972,3.45,94,31,2.87,RU,1682409408
23,puerto santa,-8.9906,-78.6456,23.33,86,100,2.67,PE,1682409408
24,tiksi,71.6872,128.8694,-7.82,90,100,4.97,RU,1682409168
25,edinburgh of the seven seas,-37.0676,-12.3116,16.72,72,100,13.73,SH,1682409408
26,celestun,20.8667,-90.4,24.3,83,9,2.28,MX,1682409408
27,port elizabeth,-33.918,25.5701,19.62,80,75,1.54,ZA,1682409131
28,ribeira grande,38.5167,-28.7,17.22,94,75,6.17,PT,1682409132
29,vilyuchinsk,52.9306,158.4028,5.15,75,25,3.15,RU,1682409188
30,thompson,55.7435,-97.8558,-2.91,63,0,2.06,CA,1682409121
31,tshikapa,-6.4167,20.8,25.35,83,100,1.32,CD,1682409410
32,punta arenas,-53.15,-70.9167,5.06,87,20,6.69,CL,1682409410
33,dunedin,-45.8742,170.5036,16.0,51,59,0.45,NZ,1682409410
34,udachny,66.4167,112.4,-1.97,63,100,7.39,RU,1682409145
35,petropavlovsk-kamchatsky,53.0452,158.6483,4.33,45,75,5.0,RU,1682409410
36,aykhal,66.0,111.5,-3.3,83,100,8.94,RU,1682409411
37,nemuro,43.3236,145.575,5.11,75,11,4.07,JP,1682409354
38,ushuaia,-54.8,-68.3,3.81,87,40,2.57,AR,1682409411
39,tura,25.5198,90.2201,33.01,27,41,2.89,IN,1682409411
40,quellon,-43.1167,-73.6167,12.14,94,100,0.0,CL,1682409411
41,constantia,44.1833,28.65,14.38,75,58,7.69,RO,1682409165
42,georgetown,5.4112,100.3354,32.97,62,20,4.12,MY,1682409183
43,guane,22.2025,-84.0875,22.85,78,25,1.18,CU,1682409412
44,poiana lacului,44.8167,24.7333,11.02,92,100,2.91,RO,1682409412
45,kulhudhuffushi,6.6221,73.07,29.54,67,100,4.17,MV,1682409412
46,kalkaman,51.9525,76.0211,13.9,43,95,4.4,KZ,1682409413
47,bilibino,68.0546,166.4372,-7.46,78,10,1.17,RU,1682409413
48,ilam,26.9167,87.9167,24.55,45,85,2.82,NP,1682409413
49,iqaluit,63.7506,-68.5145,-1.15,100,100,3.09,CA,1682409413
50,susuman,62.7833,148.1667,-2.62,82,87,2.63,RU,1682409222
51,byron bay,-28.65,153.6167,17.62,69,36,5.57,AU,1682409326
52,verkhnevilyuysk,63.4453,120.3167,-1.17,87,100,2.84,RU,1682409414
53,st. john's,47.5649,-52.7093,1.55,95,100,8.49,CA,1682409205
54,crane,31.3974,-102.3501,14.04,79,63,9.87,US,1682409414
55,luebo,-5.35,21.4167,25.49,78,100,0.54,CD,1682409415
56,aioun,16.6614,-9.6149,30.59,11,5,5.23,MR,1682409416
57,ingeniero jacobacci,-41.3427,-69.5448,9.41,47,98,3.23,AR,1682409416
58,port-aux-francais,-49.35,70.2167,4.76,70,75,6.44,TF,1682409134
59,avarua,-21.2078,-159.775,24.03,83,40,4.12,CK,1682409416
60,beckley,37.7782,-81.1882,0.96,76,18,0.44,US,1682409417
61,villa dolores,-31.9459,-65.1896,13.16,80,92,1.46,AR,1682409418
62,timimoun,29.2639,0.231,27.46,14,4,3.47,DZ,1682409418
63,east london,-33.0153,27.9116,21.52,78,75,4.12,ZA,1682409419
64,colonia,50.9333,6.95,8.96,76,20,3.6,DE,1682409419
65,lihue,21.9789,-159.3672,21.58,88,85,5.22,US,1682409419
66,puerto natales,-51.7236,-72.4875,6.61,74,99,6.51,CL,1682409420
67,stanley,54.868,-1.6985,4.88,72,0,4.12,GB,1682409132
68,buka,40.8108,69.1986,27.27,24,2,2.47,UZ,1682409421
69,albany,42.6001,-73.9662,3.62,85,20,0.45,US,1682409425
70,saint-pierre,-21.3393,55.4781,26.43,78,99,4.63,RE,1682409426
71,alfredo chaves,-20.635,-40.7497,20.76,87,92,1.9,BR,1682409431
72,vilyuysk,63.7553,121.6247,-1.25,83,100,1.51,RU,1682409432
73,brookings,44.3114,-96.7984,1.77,65,22,3.53,US,1682409432
74,lethem,3.3803,-59.7968,24.14,90,100,3.47,GY,1682409433
75,cabo san lucas,22.8909,-109.9124,21.95,49,100,1.79,MX,1682409433
76,rybnaya sloboda,55.4613,50.1409,17.11,48,100,4.35,RU,1682409433
77,pizarro,4.9533,-77.366,25.0,87,15,0.94,CO,1682409433
78,plettenberg bay,-34.0527,23.3716,18.99,70,82,0.68,ZA,1682409433
79,ugoofaaru,5.6667,73.0,29.35,69,100,4.11,MV,1682409433
80,ghat,24.9647,10.1728,26.37,23,81,2.6,LY,1682409434
81,changji,44.0167,87.3167,19.44,32,0,5.0,CN,1682409434
82,sinop,41.7711,34.8709,14.68,51,4,2.21,TR,1682409189
83,isafjordur,66.0755,-23.124,-0.98,59,20,8.23,IS,1682409162
84,portland,45.5234,-122.6762,9.43,85,15,0.89,US,1682409434
85,mount isa,-20.7333,139.5,28.87,37,75,2.57,AU,1682409200
86,pointe-noire,-4.7761,11.8635,26.21,87,100,3.18,CG,1682409435
87,loen,7.7601,168.2307,25.25,85,100,1.83,MH,1682409436
88,novodvinsk,64.4165,40.8122,0.86,80,40,2.14,RU,1682409436
89,hampton bays,40.869,-72.5176,8.81,87,7,4.29,US,1682409436
90,uliastay,47.7417,96.8444,10.92,21,100,5.65,MN,1682409436
91,acarau,-2.8856,-40.12,24.14,87,64,3.65,BR,1682409436
92,lautoka,-17.6167,177.4667,26.92,78,75,3.09,FJ,1682409318
93,kiraoli,27.15,77.7833,34.94,15,85,3.47,IN,1682409437
94,blackmans bay,-43.0167,147.3167,17.07,75,0,2.0,AU,1682409437
95,margaret river,-33.95,115.0667,13.6,87,100,9.34,AU,1682409140
96,lazaro cardenas,17.9583,-102.2,24.02,79,91,1.3,MX,1682409264
97,tazovsky,67.4667,78.7,-1.13,87,99,4.45,RU,1682409139
98,slave lake,55.2834,-114.769,2.99,87,100,4.12,CA,1682409438
99,urangan,-25.3,152.9,22.38,68,42,9.9,AU,1682409296
100,shimoda,34.6667,138.95,17.2,62,100,6.35,JP,1682409438
101,non thai,15.1981,102.0358,39.29,24,100,2.39,TH,1682409204
102,island harbour,50.724,-1.2758,7.77,75,0,4.02,GB,1682409438
103,mukalla,14.5425,49.1242,30.63,56,100,3.99,YE,1682409439
104,hasaki,35.7333,140.8333,16.23,52,100,6.65,JP,1682409439
105,dzhalagash,45.0833,64.6667,23.08,16,4,10.52,KZ,1682409439
106,gadzhiyevo,69.2551,33.3362,-1.27,73,0,9.83,RU,1682409439
107,korla,41.7597,86.1469,22.37,15,100,2.89,CN,1682409439
108,quzhou,28.9594,118.8686,13.11,96,100,3.15,CN,1682409439
109,ishigaki,24.3448,124.1572,22.07,94,75,4.12,JP,1682409247
110,scottburgh,-30.2867,30.7532,24.18,76,91,5.44,ZA,1682409440
111,guerrero negro,27.9769,-114.0611,15.02,80,73,5.2,MX,1682409225
112,pionerskiy,54.9508,20.2275,7.91,95,100,6.38,RU,1682409440
113,agat village,13.3886,144.6585,28.52,89,75,4.63,GU,1682409440
114,firuzabad,28.8438,52.5707,24.74,23,100,5.27,IR,1682409441
115,la passe,45.5549,-0.8967,11.69,87,100,2.27,FR,1682409441
116,kyren,51.6828,102.1408,15.12,26,84,3.14,RU,1682409441
117,tomah,43.9786,-90.504,-0.36,98,18,2.28,US,1682409441
118,langzhong,31.5504,105.9938,22.03,49,16,2.21,CN,1682409441
119,kapit,2.0167,112.9333,32.14,61,100,1.54,MY,1682409441
120,pangody,65.85,74.4859,-1.63,78,11,5.17,RU,1682409442
121,whitehorse,60.7161,-135.0538,-0.57,74,20,1.54,CA,1682409442
122,hola prystan',46.5206,32.5258,15.72,45,0,2.66,UA,1682409442
123,magong,23.5654,119.5863,21.72,84,92,6.5,TW,1682409247
124,grootfontein,-19.5667,18.1167,18.76,63,20,1.54,NA,1682409442
125,dalhart,36.0595,-102.5133,7.5,98,100,6.57,US,1682409442
126,reggane,26.7158,0.1714,29.78,11,0,8.07,DZ,1682409443
127,chelm,51.1431,23.4716,14.38,73,100,5.37,PL,1682409443
128,shingu,33.7333,135.9833,16.09,86,100,7.06,JP,1682409349
129,hassi messaoud,31.6804,6.0729,27.38,18,4,2.53,DZ,1682409443
130,valparaiso,-33.0393,-71.6273,16.11,63,75,0.51,CL,1682409443
131,mount pearl,47.5166,-52.7813,1.09,96,100,7.2,CA,1682409443
132,shitanjing,39.2342,106.3439,15.74,21,0,5.45,CN,1682409443
133,palu,-0.8917,119.8707,28.65,84,100,1.51,ID,1682409360
134,dryden,49.7833,-92.7503,-2.84,63,75,1.54,CA,1682409444
135,oranjemund,-28.55,16.4333,19.34,78,56,4.34,NA,1682409444
136,midland,31.9974,-102.0779,14.03,80,100,8.75,US,1682409444
137,yuzhno-kurilsk,44.0306,145.8556,6.6,46,30,2.51,RU,1682409444
138,suntar,62.1444,117.6319,0.55,86,100,3.12,RU,1682409444
139,hamilton,39.1834,-84.5333,3.85,78,17,0.45,US,1682409444
140,puerto aysen,-45.4,-72.7,10.57,100,100,1.39,CL,1682409445
141,fougamou,-1.2154,10.5838,26.64,86,100,0.64,GA,1682409445
142,vadso,70.0744,29.7487,1.09,64,20,13.38,NO,1682409446
143,san patricio,28.017,-97.5169,21.91,91,95,4.93,US,1682409446
144,cole harbour,44.6724,-63.4751,4.71,91,33,2.57,CA,1682409446
145,nyurba,63.2842,118.3319,-1.05,88,100,3.05,RU,1682409446
146,kindu,-2.95,25.95,27.41,60,91,1.13,CD,1682409446
147,rudnichnyy,59.617,52.4703,19.18,35,4,5.04,RU,1682409446
148,kokkola,63.8385,23.1307,2.74,91,100,4.12,FI,1682409447
149,hammerfest,70.6634,23.6821,0.25,74,75,5.14,NO,1682409172
150,puerto ayora,-0.7393,-90.3518,22.53,97,5,1.99,EC,1682409447
151,nagqu,31.5,92.0,-0.58,68,100,3.66,CN,1682409256
152,el porvenir,13.7617,-87.3458,22.63,94,100,0.56,HN,1682409447
153,olonkinbyen,70.9221,-8.7187,-3.59,79,95,7.01,SJ,1682409447
154,manuguru,17.981,80.7547,37.64,30,45,4.36,IN,1682409448
155,college,64.8569,-147.8028,-11.96,89,95,3.05,US,1682409448
156,dwarka,22.2394,68.9678,30.83,49,100,3.69,IN,1682409448
157,invercargill,-46.4,168.35,11.68,82,100,0.89,NZ,1682409448
158,nova sintra,14.8667,-24.7167,20.02,77,0,7.86,CV,1682409171
159,imishli,39.8709,48.06,20.47,54,100,4.72,AZ,1682409449
160,klyuchi,52.2667,79.1667,9.89,31,99,4.95,RU,1682409209
161,mafinga,-7.25,35.0667,27.54,50,20,2.19,TZ,1682409449
162,mwinilunga,-11.7358,24.4293,23.17,56,48,3.15,ZM,1682409449
163,kelso,46.1468,-122.9084,7.47,92,75,0.0,US,1682409223
164,ilulissat,69.2167,-51.1,-9.96,81,71,2.56,GL,1682409450
165,tara,56.8944,74.371,9.48,58,100,4.53,RU,1682409450
166,kibre mengist,5.8833,38.9833,21.15,77,100,2.27,ET,1682409450
167,vila franca do campo,37.7167,-25.4333,17.23,98,100,3.92,PT,1682409450
168,chichli,22.8333,78.8167,38.2,13,8,3.86,IN,1682409450
169,san luis de la loma,17.2706,-100.8939,25.41,78,94,1.3,MX,1682409451
170,colonia rincon viejo,16.9,-95.05,22.7,90,79,0.94,MX,1682409451
171,maryborough,-25.5333,152.7,20.73,65,2,4.68,AU,1682409240
172,mwene-ditu,-7.0,23.45,19.82,93,100,2.11,CD,1682409451
173,carrollton,32.9537,-96.8903,17.56,66,100,3.09,US,1682409452
174,malmberget,67.1753,20.6549,-1.69,51,0,1.03,SE,1682409452
175,mandal,25.45,74.5667,34.92,12,59,4.96,IN,1682409452
176,enriquillo,17.9,-71.2333,23.62,83,98,2.02,DO,1682409452
177,atafu village,-8.5421,-172.5159,28.72,76,45,5.48,TK,1682409453
178,kingston,17.997,-76.7936,24.53,89,75,1.03,JM,1682409454
179,waddan,29.1614,16.139,22.66,24,22,1.77,LY,1682409454
180,bahia honda,22.9036,-83.1592,23.63,78,6,1.3,CU,1682409454
181,okhotsk,59.3833,143.3,0.89,86,79,1.59,RU,1682409171
182,igarka,67.4667,86.5833,2.04,100,100,5.35,RU,1682409454
183,tsiombe,-25.3,45.4833,27.18,45,15,2.96,MG,1682409454
184,lompoc,34.6391,-120.4579,10.29,79,75,7.6,US,1682409455
185,ola,59.5833,151.2833,0.74,80,100,8.4,RU,1682409455
186,kalabo,-14.97,22.6814,26.98,40,8,3.7,ZM,1682409455
187,shache,38.4167,77.2406,26.58,11,7,1.92,CN,1682409456
188,meadow lake,34.8014,-106.5436,13.4,59,100,0.18,US,1682409456
189,alice springs,-23.7,133.8833,27.75,28,7,3.6,AU,1682409456
190,kalmunai,7.4167,81.8167,31.52,61,100,4.81,LK,1682409257
191,ratnagiri,16.9833,73.3,30.26,64,2,5.29,IN,1682409457
192,isfara,40.1265,70.6253,25.93,22,16,3.51,TJ,1682409457
193,pemangkat,1.1667,108.9667,28.91,72,100,2.96,ID,1682409457
194,kudahuvadhoo,2.6708,72.8944,28.99,72,93,4.34,MV,1682409457
195,carutapera,-1.195,-46.02,23.73,95,100,1.82,BR,1682409458
196,borodulikha,50.7184,80.9295,9.58,32,100,5.29,KZ,1682409458
197,cervantes,-39.05,-67.3833,15.64,61,85,2.63,AR,1682409458
198,kudymkar,59.0173,54.656,19.29,35,1,5.81,RU,1682409458
199,anadyr,64.75,177.4833,-6.72,68,0,1.0,RU,1682409459
200,suva,-18.1416,178.4415,25.71,83,75,1.03,FJ,1682409086
201,senillosa,-39.0,-68.4167,9.88,45,47,3.89,AR,1682409459
202,abra pampa,-22.7205,-65.697,5.48,31,0,1.01,AR,1682409459
203,yantzaza,-3.8278,-78.7594,19.02,99,99,0.19,EC,1682409459
204,ankang,32.68,109.0172,21.27,46,0,0.98,CN,1682409460
205,sosnovskoye,55.8052,43.167,16.77,48,88,3.87,RU,1682409460
206,bayanhongor,46.7167,100.1167,6.97,24,100,4.83,MN,1682409229
207,carolina beach,34.0352,-77.8936,12.8,91,44,3.99,US,1682409460
208,port mathurin,-19.6833,63.4167,26.13,80,36,9.05,MU,1682409461
209,viedma,-40.8135,-62.9967,14.41,66,0,5.37,AR,1682409461
210,kapa'a,22.0752,-159.319,21.99,88,91,0.45,US,1682409461
211,kapuskasing,49.4169,-82.4331,-2.0,93,100,3.6,CA,1682409461
212,vega de alatorre,20.0333,-96.6333,23.19,90,100,1.47,MX,1682409461
213,enewetak,11.3474,162.3373,25.49,88,100,7.79,MH,1682409462
214,kassiri,8.9372,-13.1244,26.16,80,100,3.55,SL,1682409462
215,jebel,45.5556,21.2136,11.73,95,100,6.03,RO,1682409462
216,puerto baquerizo moreno,-0.9,-89.6,25.21,82,1,3.58,EC,1682409463
217,juneau,58.3019,-134.4197,2.0,97,100,1.54,US,1682409198
218,grigoropolisskaya,45.2972,41.0567,15.07,63,52,9.28,RU,1682409463
219,uturoa,-16.7333,-151.4333,27.39,81,87,5.75,PF,1682409187
220,mandalgovi,45.7625,106.2708,9.86,18,81,7.69,MN,1682409463
221,puerto colombia,10.9878,-74.9547,26.05,78,35,6.39,CO,1682409463
222,callao,-12.0667,-77.15,23.18,83,0,4.63,PE,1682409463
223,carnarvon,-24.8667,113.6333,21.06,48,7,7.7,AU,1682409447
224,san antonio de pale,-1.4014,5.6325,28.47,72,100,3.54,GQ,1682409464
225,aras-asan,8.8908,126.3033,29.14,67,80,3.68,PH,1682409464
226,abu al matamir,30.9102,30.1744,21.95,30,0,2.01,EG,1682409464
227,queenstown,-31.8976,26.8753,21.65,32,47,1.0,ZA,1682409465
228,hermanus,-34.4187,19.2345,17.11,75,9,1.17,ZA,1682409465
229,cadale,2.7603,46.3222,29.69,64,100,4.0,SO,1682409465
230,sisimiut,66.9395,-53.6735,0.47,87,100,2.61,GL,1682409270
231,kailua-kona,19.6406,-155.9956,24.98,88,40,2.06,US,1682409466
232,saipan,15.1355,145.701,27.58,100,2,6.71,MP,1682409466
233,severo-yeniseyskiy,60.3725,93.0408,-0.68,93,100,4.91,RU,1682409466
234,taoudenni,22.6783,-3.9836,30.72,10,0,6.51,ML,1682409466
235,vorgashor,67.5833,63.95,-4.74,88,90,3.08,RU,1682409466
236,bireun,5.203,96.7009,30.58,67,99,4.41,ID,1682409466
237,floro,61.5996,5.0328,5.13,52,40,6.17,NO,1682409467
238,port alfred,-33.5906,26.891,21.21,81,99,1.34,ZA,1682409467
239,chibougamau,49.9168,-74.3659,1.79,100,100,2.06,CA,1682409467
240,waat,51.1454,6.4958,9.04,76,40,5.14,DE,1682409467
241,segre,47.6833,-0.8667,10.5,86,100,3.22,FR,1682409467
242,joshimath,30.5667,79.5667,18.96,53,60,3.13,IN,1682409468
243,longyearbyen,78.2186,15.6401,-7.09,68,20,3.09,SJ,1682409468
244,berezovo,63.9381,65.0419,-0.41,96,100,2.25,RU,1682409468
245,afaahiti,-17.75,-149.2833,25.93,84,83,5.91,PF,1682409469
246,utrik,11.2278,169.8474,27.13,83,100,9.13,MH,1682409469
247,gazojak,41.1875,61.4036,27.74,12,12,9.09,TM,1682409469
248,fale old settlement,-9.3852,-171.2468,28.91,75,36,3.84,TK,1682409469
249,nakuru,-0.2833,36.0667,22.52,61,100,1.6,KE,1682409470
250,deming,32.2687,-107.7586,16.22,22,57,3.67,US,1682409470
251,vel'sk,61.0701,42.0983,17.28,45,78,1.88,RU,1682409470
252,tual,-5.6667,132.75,28.8,69,41,0.58,ID,1682409470
253,tete,-16.1564,33.5867,26.05,69,4,0.0,MZ,1682409470
254,ulsteinvik,62.3432,5.8487,4.95,73,100,5.36,NO,1682409470
255,chaman,30.9236,66.4512,27.73,15,99,4.98,PK,1682409471
256,haiku-pauwela,20.9219,-156.3051,22.8,86,21,0.89,US,1682409471
257,armacao de buzios,-22.7469,-41.8817,20.03,86,20,1.26,BR,1682409471
258,sao vicente,-23.9631,-46.3919,21.66,26,17,1.69,BR,1682409471
259,san blas,21.5167,-105.2667,19.98,63,23,1.21,MX,1682409471
260,vredendal,-31.6683,18.5012,20.52,70,9,0.24,ZA,1682409472
261,tamanrasset,22.785,5.5228,23.95,16,0,7.72,DZ,1682409472
262,wailua homesteads,22.0669,-159.378,21.24,88,93,0.45,US,1682409472
263,new norfolk,-42.7826,147.0587,17.72,56,28,1.53,AU,1682409472
264,aasiaat,68.7098,-52.8699,-6.23,100,100,2.79,GL,1682409472
265,bonthe,7.5264,-12.505,28.02,82,100,2.5,SL,1682409472
266,peace river,56.2501,-117.286,6.48,89,75,2.06,CA,1682409472
267,vila velha,-20.3297,-40.2925,21.97,96,100,2.06,BR,1682409473
268,zhigalovo,54.8097,105.1578,11.48,37,100,0.57,RU,1682409473
269,lerwick,60.1545,-1.1494,4.0,55,78,8.59,GB,1682409473
270,singera,46.9131,28.9775,14.39,67,0,4.63,MD,1682409474
271,ciutadella,40.0011,3.8414,17.45,74,100,1.8,ES,1682409474
272,barah,13.7,30.3667,37.06,23,42,3.47,SD,1682409474
273,antsiranana,-12.2787,49.2917,31.42,62,40,3.09,MG,1682409474
274,prince george,53.9166,-122.753,4.03,76,100,1.03,CA,1682409474
275,boguchany,58.3814,97.4531,6.06,93,100,3.01,RU,1682409475
276,port augusta,-32.5,137.7667,25.53,32,100,4.6,AU,1682409475
277,nar'yan-mar,67.6713,53.087,-1.57,84,6,5.59,RU,1682409475
278,sur,22.5667,59.5289,30.87,48,3,3.23,OM,1682409475
279,olinda,-8.0089,-34.8553,23.85,88,100,1.54,BR,1682409475
280,choix,26.7092,-108.3219,19.59,33,44,1.83,MX,1682409476
281,murzuq,25.9155,13.9184,26.91,24,0,7.99,LY,1682409476
282,addison,41.9317,-87.989,6.89,86,100,0.0,US,1682409476
283,breyten,-26.3018,29.987,22.27,30,66,2.64,ZA,1682409476
284,castillos,-34.1667,-53.8333,17.36,94,99,2.75,UY,1682409243
285,la sarre,48.8002,-79.1996,-1.98,95,100,4.31,CA,1682409231
286,tra mhor,52.1624,-7.1524,7.07,83,20,3.09,IE,1682409477
287,hawaiian paradise park,19.5933,-154.9731,21.69,90,91,1.14,US,1682409477
288,la'ie,21.6477,-157.9253,23.89,87,21,1.34,US,1682409477
289,pacific grove,36.6177,-121.9166,10.04,87,91,3.13,US,1682409477
290,hithadhoo,-0.6,73.0833,29.4,72,97,4.77,MV,1682409477
291,alaghsas,17.0187,8.0168,30.94,23,1,3.09,NE,1682409478
292,iskateley,67.6803,53.1512,-1.64,84,6,5.56,RU,1682409478
293,broken hill,-31.95,141.4333,23.08,37,97,4.14,AU,1682409478
294,kangding,30.0513,101.9603,8.45,91,100,2.71,CN,1682409478
295,mont-dore,-22.2833,166.5833,25.56,99,99,5.04,NC,1682409479
296,diego de almagro,-26.3667,-70.05,14.39,53,0,0.97,CL,1682409479
297,loukhi,66.0764,33.0381,0.57,83,32,1.54,RU,1682409479
298,visby,57.6409,18.296,10.02,100,75,4.12,SE,1682409479
299,al ghayzah,16.2079,52.176,32.05,51,8,5.1,YE,1682409479
300,antonio enes,-16.2325,39.9086,28.12,61,80,4.72,MZ,1682409480
301,sona,45.4388,10.8255,13.66,88,75,3.6,IT,1682409480
302,igrim,63.1906,64.4162,2.26,100,100,2.07,RU,1682409480
303,port moresby,-9.4431,147.1797,29.68,79,40,8.23,PG,1682409480
304,tazacorte,28.629,-17.9293,18.54,81,20,3.6,ES,1682409481
305,sicuani,-14.2694,-71.2261,4.35,92,14,1.49,PE,1682409481
306,casper,42.8666,-106.3131,7.07,65,97,0.89,US,1682409481
307,csorna,47.6115,17.2501,13.34,63,79,7.33,HU,1682409482
308,el nido,11.1858,119.3956,29.78,66,63,2.56,PH,1682409482
309,salinopolis,-0.6136,-47.3561,25.68,86,100,2.84,BR,1682409482
310,robore,-18.3333,-59.75,20.13,98,27,1.64,BO,1682409482
311,chestertown,39.209,-76.0666,8.99,76,2,3.26,US,1682409483
312,zambezi,-13.5432,23.1047,25.27,48,68,3.61,ZM,1682409483
313,manado,1.487,124.8455,32.43,66,40,2.06,ID,1682409360
314,mili,6.0815,171.735,28.13,79,100,6.83,MH,1682409483
315,qaqortoq,60.7167,-46.0333,0.44,89,98,0.89,GL,1682409484
316,kidal,18.4411,1.4078,31.01,10,0,4.06,ML,1682409484
317,fort st. john,56.2499,-120.8529,1.94,80,75,4.63,CA,1682409484
318,moranbah,-22.0016,148.0466,22.37,57,3,6.49,AU,1682409240
319,altai,46.3722,96.2583,7.91,34,100,11.52,MN,1682409485
320,banda aceh,5.5577,95.3222,31.58,62,95,5.2,ID,1682409485
321,zav'yalovo,56.7847,53.3776,21.33,32,41,5.17,RU,1682409485
322,antalaha,-14.9003,50.2788,29.28,67,7,2.51,MG,1682409485
323,san rafael,-34.6177,-68.3301,14.33,58,0,1.62,AR,1682409486
324,namibe,-15.1961,12.1522,25.58,63,40,1.91,AO,1682409486
325,hotan,37.0997,79.9269,25.77,8,9,3.85,CN,1682409486
326,khandyga,62.6667,135.6,1.27,88,100,0.97,RU,1682409278
327,fauske,67.2588,15.3918,2.75,64,44,2.27,NO,1682409486
328,kwang binh,17.4833,106.6,28.55,72,24,3.68,VN,1682409369
329,lauro de freitas,-12.8944,-38.3272,27.01,74,40,3.09,BR,1682409487
330,shwebo,22.5667,95.7,39.97,18,2,3.61,MM,1682409487
331,jincheng,35.5022,112.8328,17.75,34,3,8.52,CN,1682409488
332,miandrivazo,-19.5167,45.4667,28.68,51,0,0.86,MG,1682409488
333,plastun,44.7561,136.2939,8.6,62,100,5.6,RU,1682409488
334,adilcevaz,38.8039,42.7342,9.32,49,31,1.35,TR,1682409488
335,qarqaraly,49.4058,75.4742,12.71,38,85,4.96,KZ,1682409488
336,zahedan,29.4963,60.8629,28.95,11,75,6.17,IR,1682409432
337,tolanaro,-25.0319,46.9987,26.04,65,20,4.63,MG,1682409489
338,ijmuiden,52.4573,4.6111,8.84,68,20,3.6,NL,1682409489
339,pontianak,-0.0333,109.3333,32.99,58,75,2.57,ID,1682409489
340,portrush,55.1959,-6.6493,5.93,59,7,3.37,GB,1682409489
341,sovetskaya gavan',48.9723,140.2878,5.31,58,100,3.62,RU,1682409490
342,nuku'alofa,-21.1333,-175.2,24.19,78,75,2.57,TO,1682409490
343,luderitz,-26.6481,15.1594,22.28,60,0,3.94,NA,1682409490
344,waimanalo,21.35,-157.7208,23.86,88,81,0.45,US,1682409490
345,chonchi,-42.6128,-73.8092,10.56,98,100,2.17,CL,1682409490
346,murghob,38.1702,73.9667,2.14,39,95,2.06,TJ,1682409491
347,san andres,12.5847,-81.7006,27.01,69,20,2.06,CO,1682409491
348,keflavik,64.0049,-22.5624,2.24,64,75,6.17,IS,1682409491
349,kargasok,59.0556,80.8572,2.76,51,97,8.14,RU,1682409491
350,nizhneangarsk,55.7833,109.55,-0.4,60,92,0.57,RU,1682409492
351,bni bouayach,35.1022,-3.841,19.31,60,0,2.06,MA,1682409492
352,minas de marcona,-15.2119,-75.1103,16.26,87,37,3.32,PE,1682409492
353,dromore,54.5167,-7.4667,4.76,63,8,1.52,GB,1682409493
354,al qaryatayn,34.2296,37.2407,19.02,27,8,2.81,SY,1682409493
355,yelizovo,53.1873,158.3805,5.08,44,75,5.0,RU,1682409493
356,ouadda,8.0777,22.4007,33.7,36,23,0.77,CF,1682409494
357,hakui,36.8833,136.7833,13.16,77,100,2.29,JP,1682409280
358,jiquipilas,16.6667,-93.65,21.91,90,100,0.56,MX,1682409494
359,cabedelo,-6.9811,-34.8339,24.37,87,68,3.56,BR,1682409494
360,virginia beach,36.8529,-75.978,9.45,90,39,2.35,US,1682409494
361,el alto,-4.2714,-81.2147,24.18,83,20,0.58,PE,1682409494
362,pagar alam,-4.0167,103.2667,23.02,98,100,0.35,ID,1682409495
363,motygino,58.1831,94.7592,0.13,87,100,6.15,RU,1682409495
364,wotho,10.1657,166.0102,25.34,87,100,5.7,MH,1682409495
365,fortuna,40.5982,-124.1573,9.81,88,95,1.17,US,1682409495
366,tchibanga,-2.85,11.0333,25.22,86,100,0.84,GA,1682409495
367,nan,18.8333,100.6667,37.01,37,20,3.09,TH,1682409217
368,prince rupert,54.3161,-130.3201,5.83,87,100,6.69,CA,1682409496
369,villa gesell,-37.2639,-56.973,18.36,94,80,1.51,AR,1682409496
370,kashgar,39.4547,75.9797,25.56,13,20,4.0,CN,1682409496
371,sao joao da barra,-21.6403,-41.0511,20.86,88,90,2.76,BR,1682409496
372,gerede,40.8008,32.1969,12.62,38,88,3.94,TR,1682409497
373,ixtapa,20.7,-105.2,21.79,66,90,1.33,MX,1682409497
374,sanctuary point,-35.1114,150.629,20.18,79,0,2.01,AU,1682409497
375,yabassi,4.457,9.9682,24.38,98,100,1.36,CM,1682409497
376,arkhangel'sk,64.5401,40.5433,1.06,74,100,2.0,RU,1682409498
377,palikir - national government center,6.9248,158.1611,27.46,75,100,5.39,FM,1682409498
378,nanakuli,21.3906,-158.1547,23.88,91,100,1.54,US,1682409497
379,zagora,30.3484,-5.8365,26.43,17,6,2.33,MA,1682409498
380,fort bragg,35.139,-79.006,8.03,89,24,1.0,US,1682409498
381,goleta,36.8181,10.305,20.0,68,20,1.54,TN,1682409498
382,sitka,57.0531,-135.33,2.94,81,100,4.63,US,1682409499
383,westport,41.1415,-73.3579,8.75,74,6,1.79,US,1682409265
384,ouesso,1.6136,16.0517,28.23,67,100,1.66,CG,1682409499
385,cagsiay,14.2167,121.75,27.89,75,32,6.0,PH,1682409499
386,praia da vitoria,38.7333,-27.0667,18.14,88,75,4.61,PT,1682409499
387,kerikeri,-35.2268,173.9474,13.28,86,0,1.91,NZ,1682409500
388,biloela,-24.4167,150.5,22.72,49,95,5.09,AU,1682409500
389,coquimbo,-29.9533,-71.3436,11.85,100,0,4.12,CL,1682409500
390,shubarshi,48.5872,57.1869,20.89,27,90,9.56,KZ,1682409501
391,bafq,31.6128,55.4107,30.98,14,73,5.74,IR,1682409501
392,farsan,32.2569,50.561,18.02,58,100,4.93,IR,1682409501
393,cromer,52.9312,1.2989,7.26,75,51,2.68,GB,1682409273
394,ballina,-28.8667,153.5667,17.66,64,58,5.69,AU,1682409501
395,usogorsk,63.4106,48.6872,2.49,95,100,2.01,RU,1682409502
396,novobod,39.0108,70.1508,22.67,27,56,1.22,TJ,1682409502
397,takoradi,4.8845,-1.7554,28.54,76,98,1.7,GH,1682409502
398,rio grande,-32.035,-52.0986,20.04,90,100,6.38,BR,1682409295
399,sendafa,9.15,39.0333,19.57,50,98,3.46,ET,1682409503
400,grand rapids,42.9634,-85.6681,3.98,75,98,1.34,US,1682409282
401,tralee,52.2704,-9.7026,5.69,73,100,3.65,IE,1682409503
402,qionghai,19.2425,110.4642,28.19,69,41,5.13,CN,1682409503
403,frontino,6.7801,-76.1288,16.03,95,88,0.97,CO,1682409503
404,naduvattam,11.4833,76.5667,20.38,70,99,0.87,IN,1682409503
405,esmeraldas,-19.7625,-44.3139,18.48,93,0,1.56,BR,1682409504
406,sampit,-2.5333,112.95,29.29,74,100,0.46,ID,1682409504
407,jagna,9.6531,124.3697,29.78,70,32,3.53,PH,1682409504
408,olyokminsk,60.3736,120.4264,2.67,60,100,2.92,RU,1682409505
409,richards bay,-28.783,32.0377,24.92,73,97,3.79,ZA,1682409278
410,alesund,62.4723,6.1549,4.95,71,40,6.17,NO,1682409505
411,slutsk,53.0274,27.5597,14.57,61,100,5.9,BY,1682409505
412,manglaur,29.8,77.8667,34.25,16,0,1.59,IN,1682409505
413,zhalantun,48.0,122.7167,10.63,13,100,4.12,CN,1682409506
414,bubaque,11.2833,-15.8333,25.54,67,42,4.45,GW,1682409260
415,kyotera,-0.6156,31.5175,22.51,78,88,3.97,UG,1682409506
416,dudinka,69.4058,86.1778,3.68,95,94,4.48,RU,1682409506
417,papao,-17.75,-149.55,26.82,85,50,7.2,PF,1682409507
418,alghero,40.5589,8.3181,17.05,82,20,4.63,IT,1682409507
419,cidreira,-30.1811,-50.2056,20.4,88,2,6.83,BR,1682409507
420,turbat,26.0023,63.044,32.88,25,100,6.62,PK,1682409508
421,puerto ayacucho,5.6639,-67.6236,22.99,97,100,0.97,VE,1682409508
422,hilo,19.7297,-155.09,25.16,83,84,0.92,US,1682409508
423,antofagasta,-23.65,-70.4,15.6,79,94,2.93,CL,1682409508
424,morinville,53.8001,-113.652,6.57,80,100,1.03,CA,1682409509
425,beaufort west,-32.3567,22.583,19.9,50,4,0.51,ZA,1682409509
426,darovskoy,58.77,47.9564,19.46,36,2,3.67,RU,1682409509
427,bairnsdale,-37.8333,147.6167,16.44,71,66,1.42,AU,1682409509
428,buulobarde,3.8538,45.5674,32.34,51,99,4.29,SO,1682409510
429,horasan,40.0458,42.1728,12.75,41,7,2.89,TR,1682409510
430,beira,-19.8436,34.8389,26.05,57,20,3.13,MZ,1682409510
431,manokwari,-0.8667,134.0833,28.18,74,32,0.83,ID,1682409215
432,laojunmiao,39.8333,97.7333,17.86,10,22,5.7,CN,1682409511
433,kingaroy,-26.5333,151.8333,16.93,69,14,4.74,AU,1682409511
434,trondheim,63.4305,10.3951,2.05,91,100,2.17,NO,1682409511
435,bengkulu,-3.8004,102.2655,26.75,87,100,3.61,ID,1682409237
436,bukama,-9.2,25.85,24.64,80,98,1.72,CD,1682409512
437,wynyard,-41.0,145.7167,15.62,73,100,2.22,AU,1682409512
438,general jose de san martin,-26.5374,-59.3416,14.95,99,84,1.32,AR,1682409512
439,ko pha ngan,9.7578,100.0291,30.38,67,66,3.48,TH,1682409513
440,almeirim,-1.5233,-52.5817,22.65,98,90,1.07,BR,1682409513
441,mbuji-mayi,-6.15,23.6,23.94,84,100,2.82,CD,1682409513
442,sierakowice,54.3461,17.8925,8.47,74,100,4.98,PL,1682409513
443,sint michiel liber,12.15,-68.9833,25.9,78,72,3.09,CW,1682409513
444,ylivieska,64.0833,24.55,2.4,96,100,3.86,FI,1682409514
445,arraial do cabo,-22.9661,-42.0278,21.47,84,15,2.15,BR,1682409514
446,progreso,21.2833,-89.6667,25.06,85,42,1.5,MX,1682409514
447,kuragino,53.8975,92.6725,4.7,55,100,7.26,RU,1682409514
448,badger,64.8,-147.5333,-12.01,86,92,3.5,US,1682409514
449,garhmuktesar,28.8,78.1,34.55,15,2,1.71,IN,1682409514
450,bluffton,32.2371,-80.8604,18.31,82,75,4.12,US,1682409514
451,sao borja,-28.6606,-56.0044,18.86,99,89,1.84,BR,1682409515
452,seydi,39.4816,62.9137,30.32,11,1,8.93,TM,1682409515
453,bamboo flat,11.7,92.7167,33.05,62,40,3.6,IN,1682409515
454,lorengau,-2.0226,147.2712,28.09,77,100,3.17,PG,1682409516
455,trairi,-3.2778,-39.2689,22.91,92,51,2.36,BR,1682409516
456,kyshtovka,56.555,76.6271,7.37,59,100,6.22,RU,1682409516
457,ancud,-41.8697,-73.8203,11.67,92,100,5.53,CL,1682409517
458,robertsport,6.7533,-11.3686,28.21,78,92,2.66,LR,1682409517
459,cururupu,-1.8283,-44.8683,23.57,94,97,1.21,BR,1682409517
460,andergrove,-21.0833,149.1833,23.68,72,41,9.18,AU,1682409517
461,aswan,24.0934,32.907,30.61,20,0,6.17,EG,1682409517
462,pisco,-13.7,-76.2167,20.03,83,9,1.03,PE,1682409518
463,ivdel',60.6911,60.4206,17.63,43,46,5.37,RU,1682409518
464,weno,7.4515,151.8468,26.97,89,100,1.54,FM,1682409519
465,bandarbeyla,9.4942,50.8122,31.16,58,93,5.78,SO,1682409519
466,nadym,65.5333,72.5167,-0.93,80,76,5.22,RU,1682409520
467,campbell river,50.0163,-125.2446,8.03,85,90,0.75,CA,1682409520
468,isangel,-19.55,169.2667,25.32,79,100,3.55,VU,1682409520
469,zaragoza,41.6561,-0.8773,19.69,60,0,2.06,ES,1682409520
470,guarapari,-20.6667,-40.4975,21.61,85,83,4.24,BR,1682409521
471,fomboni,-12.28,43.7425,27.87,70,99,5.98,KM,1682409521
472,harstad,68.799,16.5293,0.66,69,3,2.68,NO,1682409521
473,chernyshevskiy,63.0128,112.4714,-0.86,82,100,3.37,RU,1682409521
474,alvorada,-12.48,-49.1247,22.42,71,73,1.85,BR,1682409522
475,walvis bay,-22.9575,14.5053,17.53,82,0,0.0,NA,1682409522
476,springs,-26.25,28.4,23.01,49,55,1.97,ZA,1682409522
477,bakchar,57.0186,82.0711,4.7,38,100,5.81,RU,1682409522
478,geraldton,-28.7667,114.6,19.23,55,75,5.14,AU,1682409522
479,maracacume,-2.0428,-45.9592,22.13,98,100,1.03,BR,1682409522
480,weihai,37.5017,122.1136,12.45,49,95,1.58,CN,1682409442
481,an nuhud,12.7,28.4333,35.97,26,18,3.66,SD,1682409523
482,al muwayh,22.4333,41.7583,28.96,30,40,3.25,SA,1682409523
483,novaya igirma,57.1334,103.9112,9.19,55,100,2.61,RU,1682409524
484,concepcion,-36.827,-73.0498,11.89,94,100,1.03,CL,1682409524
485,douera,36.67,2.9444,16.96,32,55,1.98,DZ,1682409524
486,vanimo,-2.6741,141.3028,27.78,82,87,2.87,PG,1682409270
487,titusville,28.6122,-80.8075,23.36,90,86,0.45,US,1682409524
488,barra do corda,-5.5,-45.25,21.22,81,100,1.13,BR,1682409525
489,mersa matruh,31.3525,27.2453,22.11,53,0,3.09,EG,1682409525
490,la ronge,55.1001,-105.2842,2.14,55,75,4.12,CA,1682409525
491,novobureyskiy,49.798,129.8774,7.83,29,100,5.82,RU,1682409525
492,itumbiara,-18.4192,-49.2153,20.43,80,35,2.54,BR,1682409525
493,nahiyat al fuhud,30.9697,46.7228,30.72,22,0,6.61,IQ,1682409525
494,miguel ahumada,30.6167,-106.5167,18.08,26,0,7.4,MX,1682409526
495,augustdorf,51.9094,8.7317,7.69,83,90,5.13,DE,1682409526
496,tarko-sale,64.9225,77.785,-1.03,81,100,8.41,RU,1682409527
497,north bend,43.4065,-124.2243,6.71,96,6,2.62,US,1682409527
498,narvik,68.4384,17.4272,0.67,56,0,2.22,NO,1682409527
499,tocopilla,-22.092,-70.1979,19.35,75,14,3.13,CL,1682409527
500,tanjung pandan,-2.75,107.65,29.28,72,77,1.59,ID,1682409527
501,boundiali,9.5217,-6.4869,28.7,54,99,2.85,CI,1682409528
502,codrington,-38.2667,141.9667,19.61,59,100,1.72,AU,1682409528
503,mizan teferi,6.9833,35.5833,22.5,84,83,0.61,ET,1682409529
504,mata-utu,-13.2816,-176.1745,28.43,73,100,2.95,WF,1682409425
505,okha,53.5739,142.9478,1.34,72,52,3.24,RU,1682409529
506,ciudad bolivar,8.1222,-63.5497,25.55,83,100,3.41,VE,1682409529
507,holualoa,19.6228,-155.9522,22.91,89,40,2.06,US,1682409529
508,lycksele,64.5954,18.6735,0.93,51,100,4.12,SE,1682409529
509,vilppula,62.0212,24.5048,4.88,93,100,3.74,FI,1682409529
510,villanueva,15.3167,-88.0,25.58,100,40,1.03,HN,1682409530
511,kirakira,-10.4544,161.9205,27.15,81,81,1.75,SB,1682409530
512,boyolangu,-8.1181,111.8935,29.0,76,85,0.98,ID,1682409530
513,turpan,42.9333,89.1667,28.49,9,98,3.4,CN,1682409414
514,villemandeur,47.987,2.718,10.08,86,30,3.03,FR,1682409531
515,macheng,31.1783,115.0319,16.2,62,91,1.44,CN,1682409531
516,vorkuta,67.5,64.0,-4.27,87,92,2.85,RU,1682409531
517,acapulco de juarez,16.8634,-99.8901,24.79,82,55,1.63,MX,1682409532
518,genhe,50.7833,121.5167,2.72,29,100,3.46,CN,1682409532
519,dubrovnik,42.6481,18.0922,15.8,82,40,5.14,HR,1682409532
520,amga,60.8953,131.9608,0.26,82,100,1.75,RU,1682409274
521,diamantino,-14.4086,-56.4461,22.78,84,100,1.86,BR,1682409533
522,businga,3.3333,20.8833,31.21,49,37,1.3,CD,1682409533
523,silivri,41.0802,28.226,16.06,67,100,4.45,TR,1682409534
524,kununurra,-15.7667,128.7333,34.99,34,11,3.09,AU,1682409534
525,alofi,-19.0595,-169.9187,22.94,94,100,0.51,NU,1682409534
526,heroica guaymas,27.9333,-110.9,19.22,68,11,1.96,MX,1682409535
527,jablah,35.3614,35.9256,21.16,49,20,3.09,SY,1682409535
528,taksimo,56.3444,114.8794,1.49,44,100,1.26,RU,1682409535
529,sao martinho,39.5144,-9.1311,17.16,94,85,2.24,PT,1682409535
530,cill airne,52.05,-9.5167,5.43,76,100,2.01,IE,1682409535
531,katabu,-4.9333,122.5167,27.8,86,75,2.12,ID,1682409535
532,badagry,6.4167,2.8833,29.04,70,100,0.97,NG,1682409536
533,samana,19.2056,-69.3369,22.61,84,91,1.36,DO,1682409536
534,ranot,7.7777,100.3213,30.64,65,100,3.79,TH,1682409536
535,hadithah,34.1397,42.3781,23.7,40,6,1.35,IQ,1682409536
536,kirando,-7.4167,30.6,25.08,74,55,1.73,TZ,1682409536
537,salalah,17.0151,54.0924,30.77,61,7,5.37,OM,1682409537
538,long beach,33.767,-118.1892,16.65,89,92,0.89,US,1682409537
539,gevrai,19.2667,75.75,38.05,15,55,2.47,IN,1682409537
540,katsuura,35.1333,140.3,15.79,61,100,6.45,JP,1682409537
541,ramgarh,23.6333,85.5167,32.03,17,43,3.03,IN,1682409538
542,borazjan,29.2666,51.2159,33.41,23,87,5.32,IR,1682409538
543,newman,37.3138,-121.0208,15.16,71,68,0.89,US,1682409538
544,santa ana,33.7456,-117.8678,16.47,84,100,3.09,US,1682409538
545,porbandar,21.6422,69.6093,32.35,43,100,3.0,IN,1682409538
546,kamloops,50.6665,-120.3192,8.55,53,40,5.14,CA,1682409538
547,berdigestyakh,62.0989,126.6992,-0.98,86,100,2.18,RU,1682409539
548,ulladulla,-35.35,150.4667,17.65,79,0,1.55,AU,1682409539
549,beeville,28.4008,-97.7483,18.68,94,100,2.06,US,1682409539
550,bryne,58.7354,5.6477,5.52,75,40,11.32,NO,1682409539
551,rawson,-43.3002,-65.1023,16.34,31,100,2.88,AR,1682409540
552,kharp,66.8014,65.8081,-1.07,76,67,2.24,RU,1682409540
553,kruisfontein,-34.0033,24.7314,18.27,76,100,1.15,ZA,1682409540
554,huarmey,-10.0681,-78.1522,23.83,84,94,3.09,PE,1682409540
